{
	"place0": {
		"id": "dealer1",
		"latitude": -3.1190275,
		"longitude": -60.0217314,
		"title": "Dealer 1",
		"street": "Max Teixeira 30-Colsanto Antonio",
		"postal_code": "69093-770",
		"city": "Manaus",
		"country": "Brazil",
		"contact_person": "Dealer Contact",
		"telephone": "+55 33 3355-5555",
		"url": "http://www.google.se/"
	},
	"place1": {
		"id": "dealer2",
		"latitude": 23.810332,
		"longitude": 90.4125181,
		"title": "Dealer 2",
		"street": "B Rupsha Tower, 7 Kemal Ataturk Avenue",
		"postal_code": "Dhaka -1213",
		"city": "Banani C/A",
		"country": "Bangladesh",
		"contact_person": "Dealer Contact",
		"telephone": "+88 02 444422",
		"url": "http://www.google.se/"
	},
	"place2": {
		"id": "dealer3",
		"latitude": 41.1916819,
		"longitude": -8.5812717,
		"title": "Dealer 3",
		"street": "Rua Manuel Pinto de Azevedo 660",
		"postal_code": "4149-010",
		"city": "Porto",
		"country": "Portugal",
		"contact_person": "Dealer Contact",
		"telephone": "+35 33345566",
		"url": "http://www.google.se/"
	},
	"place3": {
		"id": "dealer4",
		"latitude": 60.29096,
		"longitude": 5.2660127,
		"title": "Dealer 4",
		"street": "Ytrebygdsvei 50",
		"postal_code": "NO-5252",
		"city": "S&#214;REIDGREND",
		"country": "Norway",
		"contact_person": "Dealer Contact",
		"telephone": "+47 3356 777",
		"url": "http://www.google.se/"
	},
	"place4": {
		"id": "dealer5",
		"latitude": 35.1508399,
		"longitude": 33.3743681,
		"title": "Dealer 5",
		"street": "28 Limassol Avenue",
		"postal_code": "545 55",
		"city": "Nicosia",
		"country": "Cyprus",
		"contact_person": "Dealer Contact",
		"telephone": "+357 4466 6666",
		"url": "http://www.google.se/"
	},
	"place5": {
		"id": "dealer6",
		"latitude": 57.66179,
		"longitude": 11.89605,
		"title": "Dealer 6",
		"street": "Kungsgatan 20",
		"postal_code": "433 15",
		"city": "G&#246;teborg",
		"country": "Sweden",
		"contact_person": "Dealer Contact",
		"telephone": "+46 33 333 3255",
		"url": "http://www.google.se/"
	},
	"place5": {
		"id": "dealer6",
		"latitude": 57.66179,
		"longitude": 11.89600,
		"title": "Dealer 6",
		"street": "Kungsgatan 2",
		"postal_code": "433 15",
		"city": "G&#246;teborg",
		"country": "Sweden",
		"contact_person": "Dealer Contact",
		"telephone": "+46 33 333 3255",
		"url": "http://www.google.se/"
	},
	"place6": {
		"id": "dealer7",
		"latitude": 57.66379,
		"longitude": 11.89405,
		"title": "Dealer 7",
		"street": "Test street",
		"postal_code": "446 66",
		"city": "G&#246;teborg",
		"country": "Sweden",
		"contact_person": "Dealer Contact",
		"telephone": "+46 033 1111",
		"url": "http://www.google.se/"
	}
}